{
  "type": "FeatureCollection",
  "name": "gabes-buildings",
  "note": "Curated set of 25 target buildings for vegetal-panel placement in Gabès, Tunisia. Properties: type, surface_m2 (roof+facade area suitable for panels), occupants (daily), ndvi (existing greenery 0..1), heat_island_c (°C above city mean).",
  "features": [
    { "type": "Feature", "properties": { "id": "b-01", "name": "École Primaire Bab Bhar", "type": "school", "surface_m2": 850, "occupants": 420, "ndvi": 0.08, "heat_island_c": 3.2 }, "geometry": { "type": "Point", "coordinates": [10.1045, 33.8832] } },
    { "type": "Feature", "properties": { "id": "b-02", "name": "École Primaire Chatt Essalam", "type": "school", "surface_m2": 720, "occupants": 380, "ndvi": 0.04, "heat_island_c": 4.6 }, "geometry": { "type": "Point", "coordinates": [10.1002, 33.9105] } },
    { "type": "Feature", "properties": { "id": "b-03", "name": "Collège Gabès Centre", "type": "school", "surface_m2": 1450, "occupants": 850, "ndvi": 0.11, "heat_island_c": 3.8 }, "geometry": { "type": "Point", "coordinates": [10.1051, 33.8861] } },
    { "type": "Feature", "properties": { "id": "b-04", "name": "Lycée Farhat Hached", "type": "school", "surface_m2": 2200, "occupants": 1200, "ndvi": 0.12, "heat_island_c": 3.4 }, "geometry": { "type": "Point", "coordinates": [10.0968, 33.8898] } },
    { "type": "Feature", "properties": { "id": "b-05", "name": "École Primaire Ghannouche", "type": "school", "surface_m2": 680, "occupants": 340, "ndvi": 0.05, "heat_island_c": 5.1 }, "geometry": { "type": "Point", "coordinates": [10.1078, 33.9289] } },
    { "type": "Feature", "properties": { "id": "b-06", "name": "Lycée Ghannouche", "type": "school", "surface_m2": 1800, "occupants": 950, "ndvi": 0.06, "heat_island_c": 5.0 }, "geometry": { "type": "Point", "coordinates": [10.1045, 33.9272] } },
    { "type": "Feature", "properties": { "id": "b-07", "name": "CHU Habib Bourguiba Gabès", "type": "hospital", "surface_m2": 3800, "occupants": 2400, "ndvi": 0.18, "heat_island_c": 2.9 }, "geometry": { "type": "Point", "coordinates": [10.0884, 33.8879] } },
    { "type": "Feature", "properties": { "id": "b-08", "name": "Hôpital Régional Ghannouche", "type": "hospital", "surface_m2": 1600, "occupants": 850, "ndvi": 0.09, "heat_island_c": 4.8 }, "geometry": { "type": "Point", "coordinates": [10.1102, 33.9245] } },
    { "type": "Feature", "properties": { "id": "b-09", "name": "Université de Gabès · Campus Central", "type": "university", "surface_m2": 4200, "occupants": 3200, "ndvi": 0.22, "heat_island_c": 2.5 }, "geometry": { "type": "Point", "coordinates": [10.0825, 33.8821] } },
    { "type": "Feature", "properties": { "id": "b-10", "name": "Grande Mosquée de Jara", "type": "mosque", "surface_m2": 1100, "occupants": 600, "ndvi": 0.07, "heat_island_c": 3.7 }, "geometry": { "type": "Point", "coordinates": [10.1058, 33.8864] } },
    { "type": "Feature", "properties": { "id": "b-11", "name": "Mosquée Ghannouche", "type": "mosque", "surface_m2": 680, "occupants": 420, "ndvi": 0.05, "heat_island_c": 4.9 }, "geometry": { "type": "Point", "coordinates": [10.1089, 33.9258] } },
    { "type": "Feature", "properties": { "id": "b-12", "name": "Résidence El Khalij", "type": "housing", "surface_m2": 2800, "occupants": 1900, "ndvi": 0.10, "heat_island_c": 3.6 }, "geometry": { "type": "Point", "coordinates": [10.1014, 33.8762] } },
    { "type": "Feature", "properties": { "id": "b-13", "name": "Cité Jedida · Bloc A", "type": "housing", "surface_m2": 2400, "occupants": 1650, "ndvi": 0.13, "heat_island_c": 3.1 }, "geometry": { "type": "Point", "coordinates": [10.0929, 33.8848] } },
    { "type": "Feature", "properties": { "id": "b-14", "name": "Cité Olympique", "type": "housing", "surface_m2": 3200, "occupants": 2100, "ndvi": 0.14, "heat_island_c": 3.3 }, "geometry": { "type": "Point", "coordinates": [10.0964, 33.8929] } },
    { "type": "Feature", "properties": { "id": "b-15", "name": "Cité El Menzah Gabès", "type": "housing", "surface_m2": 1900, "occupants": 1150, "ndvi": 0.16, "heat_island_c": 2.8 }, "geometry": { "type": "Point", "coordinates": [10.0898, 33.8793] } },
    { "type": "Feature", "properties": { "id": "b-16", "name": "Résidence Chatt Essalam", "type": "housing", "surface_m2": 2600, "occupants": 1550, "ndvi": 0.05, "heat_island_c": 4.5 }, "geometry": { "type": "Point", "coordinates": [10.0987, 33.9118] } },
    { "type": "Feature", "properties": { "id": "b-17", "name": "Logements Ghannouche Ouest", "type": "housing", "surface_m2": 2100, "occupants": 1300, "ndvi": 0.07, "heat_island_c": 4.7 }, "geometry": { "type": "Point", "coordinates": [10.1012, 33.9221] } },
    { "type": "Feature", "properties": { "id": "b-18", "name": "Résidence Teboulbou", "type": "housing", "surface_m2": 1800, "occupants": 1100, "ndvi": 0.20, "heat_island_c": 2.4 }, "geometry": { "type": "Point", "coordinates": [10.0912, 33.8538] } },
    { "type": "Feature", "properties": { "id": "b-19", "name": "Municipalité de Gabès", "type": "office", "surface_m2": 1250, "occupants": 350, "ndvi": 0.09, "heat_island_c": 3.5 }, "geometry": { "type": "Point", "coordinates": [10.1032, 33.8874] } },
    { "type": "Feature", "properties": { "id": "b-20", "name": "Gouvernorat de Gabès", "type": "office", "surface_m2": 1480, "occupants": 420, "ndvi": 0.11, "heat_island_c": 3.4 }, "geometry": { "type": "Point", "coordinates": [10.1014, 33.8891] } },
    { "type": "Feature", "properties": { "id": "b-21", "name": "Centre Commercial Gabès", "type": "mall", "surface_m2": 3500, "occupants": 1800, "ndvi": 0.05, "heat_island_c": 3.9 }, "geometry": { "type": "Point", "coordinates": [10.0972, 33.8905] } },
    { "type": "Feature", "properties": { "id": "b-22", "name": "Hôtel Chems El Hana", "type": "hotel", "surface_m2": 1900, "occupants": 300, "ndvi": 0.15, "heat_island_c": 2.9 }, "geometry": { "type": "Point", "coordinates": [10.1082, 33.8821] } },
    { "type": "Feature", "properties": { "id": "b-23", "name": "Marché Central de Gabès", "type": "mall", "surface_m2": 1350, "occupants": 900, "ndvi": 0.04, "heat_island_c": 3.8 }, "geometry": { "type": "Point", "coordinates": [10.1048, 33.8858] } },
    { "type": "Feature", "properties": { "id": "b-24", "name": "Gare Routière de Gabès", "type": "office", "surface_m2": 1100, "occupants": 500, "ndvi": 0.06, "heat_island_c": 3.6 }, "geometry": { "type": "Point", "coordinates": [10.0992, 33.8839] } },
    { "type": "Feature", "properties": { "id": "b-25", "name": "Centre Culturel de Gabès", "type": "office", "surface_m2": 950, "occupants": 280, "ndvi": 0.18, "heat_island_c": 2.7 }, "geometry": { "type": "Point", "coordinates": [10.0945, 33.8882] } }
  ]
}
